{"meta":{"code":200},"response":{"venues":[{"id":"49bdcc74f964a5209a541fe3","name":"Capogiro Gelato Artisans","contact":{"phone":"2153510900","formattedPhone":"(215) 351-0900","twitter":"capogiro13"},"location":{"address":"119 S 13th St","crossStreet":"at Sansom St","lat":39.9498447069561,"lng":-75.16197410988357,"distance":313,"postalCode":"19107","cc":"US","city":"Philadelphia","state":"PA","country":"United States"},"categories":[{"id":"4bf58dd8d48988d1c9941735","name":"Ice Cream Shop","pluralName":"Ice Cream Shops","shortName":"Ice Cream","icon":{"prefix":"https://ss1.4sqi.net/img/categories_v2/food/icecream_","suffix":".png"},"primary":true}],"verified":true,"stats":{"checkinsCount":5966,"usersCount":3493,"tipCount":87},"url":"http://www.capogirogelato.com","menu":{"type":"Menu","label":"Menu","anchor":"View Menu","url":"https://foursquare.com/v/capogiro-gelato-artisans/49bdcc74f964a5209a541fe3/menu","mobileUrl":"https://foursquare.com/v/49bdcc74f964a5209a541fe3/device_menu"},"specials":{"count":0,"items":[]},"hereNow":{"count":1,"summary":"1 person here","groups":[{"type":"others","name":"Other people here","count":1,"items":[]}]},"storeId":"","referralId":"v-1397675383"},{"id":"4ba526aff964a52065e438e3","name":"Bassett's Ice Cream","contact":{"phone":"2159254315","formattedPhone":"(215) 925-4315"},"location":{"address":"45 N 12th St","crossStreet":"Reading Terminal Market","lat":39.953456,"lng":-75.159731,"distance":379,"postalCode":"19107","cc":"US","city":"Philadelphia","state":"PA","country":"United States"},"categories":[{"id":"4bf58dd8d48988d1c9941735","name":"Ice Cream Shop","pluralName":"Ice Cream Shops","shortName":"Ice Cream","icon":{"prefix":"https://ss1.4sqi.net/img/categories_v2/food/icecream_","suffix":".png"},"primary":true}],"verified":false,"stats":{"checkinsCount":1884,"usersCount":1571,"tipCount":33},"url":"http://bassettsicecream.com","menu":{"type":"Menu","label":"Menu","anchor":"View Menu","url":"https://foursquare.com/v/bassetts-ice-cream/4ba526aff964a52065e438e3/menu","mobileUrl":"https://foursquare.com/v/4ba526aff964a52065e438e3/device_menu"},"specials":{"count":0,"items":[]},"hereNow":{"count":2,"summary":"2 people here","groups":[{"type":"others","name":"Other people here","count":2,"items":[]}]},"referralId":"v-1397675383"},{"id":"4a8f2beef964a520381420e3","name":"More Than Just Ice Cream","contact":{"phone":"2155740586","formattedPhone":"(215) 574-0586"},"location":{"address":"1119 Locust St","crossStreet":"btwn 11th & 12th","lat":39.94771362439599,"lng":-75.16034603118896,"distance":588,"postalCode":"19107","cc":"US","city":"Philadelphia","state":"PA","country":"United States"},"categories":[{"id":"4bf58dd8d48988d1c9941735","name":"Ice Cream Shop","pluralName":"Ice Cream Shops","shortName":"Ice Cream","icon":{"prefix":"https://ss1.4sqi.net/img/categories_v2/food/icecream_","suffix":".png"},"primary":true}],"verified":true,"stats":{"checkinsCount":2888,"usersCount":1359,"tipCount":29},"url":"http://morethanjusticecream.com","delivery":{"url":"http://www.seamless.com/food-delivery/restaurant.16597.r?a=1026&utm_source=Foursquare&utm_medium=affiliate&utm_campaign=SeamlessOrderDeliveryLink","provider":{"name":"seamless"}},"specials":{"count":0,"items":[]},"hereNow":{"count":0,"summary":"0 people here","groups":[]},"referralId":"v-1397675383"},{"id":"423b6b80f964a5203d201fe3","name":"Scoop DeVille","contact":{"phone":"2159889992","formattedPhone":"(215) 988-9992","twitter":"scoop_deville"},"location":{"address":"1315 Walnut St.","crossStreet":"at Juniper St.","lat":39.949243467562525,"lng":-75.16292095184326,"distance":344,"postalCode":"19107","cc":"US","city":"Philadelphia","state":"PA","country":"United States"},"categories":[{"id":"4bf58dd8d48988d1d0941735","name":"Dessert Shop","pluralName":"Dessert Shops","shortName":"Desserts","icon":{"prefix":"https://ss1.4sqi.net/img/categories_v2/food/dessert_","suffix":".png"},"primary":true}],"verified":true,"stats":{"checkinsCount":2966,"usersCount":1839,"tipCount":23},"url":"http://www.scoopdeville.com","delivery":{"url":"http://www.seamless.com/food-delivery/restaurant.29099.r?a=1026&utm_source=Foursquare&utm_medium=affiliate&utm_campaign=SeamlessOrderDeliveryLink","provider":{"name":"seamless"}},"menu":{"type":"Menu","label":"Menu","anchor":"View Menu","url":"https://foursquare.com/v/scoop-deville/423b6b80f964a5203d201fe3/menu","mobileUrl":"https://foursquare.com/v/423b6b80f964a5203d201fe3/device_menu"},"specials":{"count":1,"items":[{"id":"4c94dffbbc279c74571f5e53","type":"count","message":"Free Small Ice Cream or Yogurt with up to 2 Blends on your 11th Check-in!","description":"Unlocked on your 11th check-in","icon":"frequency","title":"Loyalty Special","provider":"foursquare","redemption":"standard"}]},"hereNow":{"count":0,"summary":"0 people here","groups":[]},"storeId":"","referralId":"v-1397675383"},{"id":"4a46a5ccf964a5203ca91fe3","name":"Capogiro Gelato Artisans","contact":{"phone":"2156369250","formattedPhone":"(215) 636-9250","twitter":"capogiro20"},"location":{"address":"117 S 20th St","crossStreet":"at Sansom St.","lat":39.951326,"lng":-75.173622,"distance":836,"postalCode":"19103","cc":"US","city":"Philadelphia","state":"PA","country":"United States"},"categories":[{"id":"4bf58dd8d48988d1d0941735","name":"Dessert Shop","pluralName":"Dessert Shops","shortName":"Desserts","icon":{"prefix":"https://ss1.4sqi.net/img/categories_v2/food/dessert_","suffix":".png"},"primary":true}],"verified":false,"stats":{"checkinsCount":4179,"usersCount":2602,"tipCount":43},"url":"http://capogirogelato.com","menu":{"type":"Menu","label":"Menu","anchor":"View Menu","url":"https://foursquare.com/v/capogiro-gelato-artisans/4a46a5ccf964a5203ca91fe3/menu","mobileUrl":"https://foursquare.com/v/4a46a5ccf964a5203ca91fe3/device_menu"},"specials":{"count":0,"items":[]},"hereNow":{"count":0,"summary":"0 people here","groups":[]},"referralId":"v-1397675383"},{"id":"4a70e389f964a520b2d81fe3","name":"Yogorino","contact":{"phone":"2676395287","formattedPhone":"(267) 639-5287","twitter":"yogorinophilly"},"location":{"address":"233 S 20th St","crossStreet":"20th & Locust","lat":39.94947787599267,"lng":-75.17395824193954,"distance":912,"postalCode":"19103","cc":"US","city":"Philadelphia","state":"PA","country":"United States"},"categories":[{"id":"4bf58dd8d48988d1d0941735","name":"Dessert Shop","pluralName":"Dessert Shops","shortName":"Desserts","icon":{"prefix":"https://ss1.4sqi.net/img/categories_v2/food/dessert_","suffix":".png"},"primary":true}],"verified":true,"stats":{"checkinsCount":3686,"usersCount":1466,"tipCount":43},"url":"http://www.facebook.com/yogorinophilly","specials":{"count":0,"items":[]},"hereNow":{"count":0,"summary":"0 people here","groups":[]},"referralId":"v-1397675383"},{"id":"4a3c3ddef964a52050a11fe3","name":"Sweet Ending","contact":{"phone":"2155680089","formattedPhone":"(215) 568-0089","twitter":"sweetending"},"location":{"address":"1800 Chestnut St","crossStreet":"at 18th Street","lat":39.951725270499395,"lng":-75.1703987195942,"distance":558,"postalCode":"19103","cc":"US","city":"Philadelphia","state":"PA","country":"United States"},"categories":[{"id":"4bf58dd8d48988d1c9941735","name":"Ice Cream Shop","pluralName":"Ice Cream Shops","shortName":"Ice Cream","icon":{"prefix":"https://ss1.4sqi.net/img/categories_v2/food/icecream_","suffix":".png"},"primary":true}],"verified":false,"stats":{"checkinsCount":2080,"usersCount":1381,"tipCount":26},"specials":{"count":0,"items":[]},"hereNow":{"count":0,"summary":"0 people here","groups":[]},"referralId":"v-1397675383"},{"id":"51b51f1c498ee782ffb49183","name":"The Lite Choice","contact":{},"location":{"address":"1528 Walnut St","lat":39.949499,"lng":-75.167649,"distance":443,"postalCode":"19103","cc":"US","city":"Philadelphia","state":"PA","country":"United States"},"categories":[{"id":"4bf58dd8d48988d1c9941735","name":"Ice Cream Shop","pluralName":"Ice Cream Shops","shortName":"Ice Cream","icon":{"prefix":"https://ss1.4sqi.net/img/categories_v2/food/icecream_","suffix":".png"},"primary":true}],"verified":false,"stats":{"checkinsCount":126,"usersCount":75,"tipCount":3},"specials":{"count":0,"items":[]},"hereNow":{"count":0,"summary":"0 people here","groups":[]},"referralId":"v-1397675383"},{"id":"530144aa11d208d8103bf2cc","name":"whirledpeace Smoothies And Frozen Yogurt","contact":{},"location":{"address":"1901 Callowhill St","crossStreet":"19th Street","lat":39.96071830580916,"lng":-75.17058111480534,"distance":1102,"postalCode":"19130","cc":"US","city":"Philadelphia","state":"PA","country":"United States"},"categories":[{"id":"512e7cae91d4cbb4e5efe0af","name":"Frozen Yogurt","pluralName":"Yogurt","shortName":"Frozen Yogurt","icon":{"prefix":"https://ss1.4sqi.net/img/categories_v2/food/default_","suffix":".png"},"primary":true}],"verified":false,"stats":{"checkinsCount":35,"usersCount":31,"tipCount":0},"specials":{"count":0,"items":[]},"hereNow":{"count":0,"summary":"0 people here","groups":[]},"referralId":"v-1397675383"},{"id":"4c6c718a6af58cfa96e28617","name":"Sweet Ending","contact":{"phone":"2157721210","formattedPhone":"(215) 772-1210","twitter":"sweetending"},"location":{"address":"1300 Walnut St","crossStreet":"at 13th St.","lat":39.94915552787458,"lng":-75.16215081472622,"distance":374,"postalCode":"19107","cc":"US","city":"Philadelphia","state":"PA","country":"United States"},"categories":[{"id":"4bf58dd8d48988d1d0941735","name":"Dessert Shop","pluralName":"Dessert Shops","shortName":"Desserts","icon":{"prefix":"https://ss1.4sqi.net/img/categories_v2/food/dessert_","suffix":".png"},"primary":true}],"verified":false,"stats":{"checkinsCount":1737,"usersCount":1206,"tipCount":12},"menu":{"type":"Menu","label":"Menu","anchor":"View Menu","url":"https://foursquare.com/v/sweet-ending/4c6c718a6af58cfa96e28617/menu","mobileUrl":"https://foursquare.com/v/4c6c718a6af58cfa96e28617/device_menu"},"specials":{"count":0,"items":[]},"hereNow":{"count":0,"summary":"0 people here","groups":[]},"referralId":"v-1397675383"},{"id":"500c587ee4b02b2a7fc688df","name":"i-Green","contact":{"phone":"2675192742","formattedPhone":"(267) 519-2742","twitter":"igreenyogurt"},"location":{"address":"1028 Arch St","crossStreet":"between 10th and 11th St.","lat":39.9536625274875,"lng":-75.15751652201592,"distance":566,"postalCode":"19107","cc":"US","city":"Philadelphia","state":"PA","country":"United States"},"categories":[{"id":"4bf58dd8d48988d1d0941735","name":"Dessert Shop","pluralName":"Dessert Shops","shortName":"Desserts","icon":{"prefix":"https://ss1.4sqi.net/img/categories_v2/food/dessert_","suffix":".png"},"primary":true}],"verified":false,"stats":{"checkinsCount":258,"usersCount":179,"tipCount":8},"delivery":{"url":"http://www.seamless.com/food-delivery/restaurant.25409.r?a=1026&utm_source=Foursquare&utm_medium=affiliate&utm_campaign=SeamlessOrderDeliveryLink","provider":{"name":"seamless"}},"specials":{"count":0,"items":[]},"hereNow":{"count":0,"summary":"0 people here","groups":[]},"referralId":"v-1397675383"},{"id":"4c7ab44c566db60cb2d8480e","name":"Berry Sweet Frozen Yogurt","contact":{"phone":"2159222110","formattedPhone":"(215) 922-2110"},"location":{"address":"903 South St","crossStreet":"at 9th St","lat":39.942695,"lng":-75.15718531445943,"distance":1207,"postalCode":"19147","cc":"US","city":"Philadelphia","state":"PA","country":"United States"},"categories":[{"id":"512e7cae91d4cbb4e5efe0af","name":"Frozen Yogurt","pluralName":"Yogurt","shortName":"Frozen Yogurt","icon":{"prefix":"https://ss1.4sqi.net/img/categories_v2/food/default_","suffix":".png"},"primary":true}],"verified":false,"stats":{"checkinsCount":612,"usersCount":462,"tipCount":10},"specials":{"count":0,"items":[]},"hereNow":{"count":0,"summary":"0 people here","groups":[]},"referralId":"v-1397675383"},{"id":"53126cd3498e968b9ef21250","name":"the igloo","contact":{},"location":{"lat":39.9488330036744,"lng":-75.16072006980846,"distance":466,"cc":"US","city":"Philadelphia","state":"PA","country":"United States"},"categories":[{"id":"512e7cae91d4cbb4e5efe0af","name":"Frozen Yogurt","pluralName":"Yogurt","shortName":"Frozen Yogurt","icon":{"prefix":"https://ss1.4sqi.net/img/categories_v2/food/default_","suffix":".png"},"primary":true}],"verified":false,"stats":{"checkinsCount":13,"usersCount":5,"tipCount":0},"specials":{"count":0,"items":[]},"hereNow":{"count":0,"summary":"0 people here","groups":[]},"referralId":"v-1397675383"},{"id":"53162f31498eb66232d72e25","name":"The Igloo","contact":{},"location":{"crossStreet":"12th & Walnut","lat":39.9489,"lng":-75.160647,"distance":464,"cc":"US","city":"Philadelphia","state":"PA","country":"United States"},"categories":[{"id":"512e7cae91d4cbb4e5efe0af","name":"Frozen Yogurt","pluralName":"Yogurt","shortName":"Frozen Yogurt","icon":{"prefix":"https://ss1.4sqi.net/img/categories_v2/food/default_","suffix":".png"},"primary":true}],"verified":false,"stats":{"checkinsCount":10,"usersCount":10,"tipCount":1},"specials":{"count":0,"items":[]},"hereNow":{"count":0,"summary":"0 people here","groups":[]},"referralId":"v-1397675383"},{"id":"4b91821df964a520bec133e3","name":"Philly Flavors","contact":{"phone":"2675198982","formattedPhone":"(267) 519-8982"},"location":{"address":"343 S 13th St","crossStreet":"at Pine St.","lat":39.94546830654144,"lng":-75.163036,"distance":758,"postalCode":"19107","cc":"US","city":"Philadelphia","state":"PA","country":"United States"},"categories":[{"id":"4bf58dd8d48988d1c9941735","name":"Ice Cream Shop","pluralName":"Ice Cream Shops","shortName":"Ice Cream","icon":{"prefix":"https://ss1.4sqi.net/img/categories_v2/food/icecream_","suffix":".png"},"primary":true}],"verified":false,"stats":{"checkinsCount":766,"usersCount":359,"tipCount":5},"specials":{"count":0,"items":[]},"hereNow":{"count":0,"summary":"0 people here","groups":[]},"referralId":"v-1397675383"},{"id":"4c1bbc96b9f876b046bf7a46","name":"Dairy Queen","contact":{"phone":"2156274200","formattedPhone":"(215) 627-4200","twitter":"dairyqueen"},"location":{"address":"609 Chestnut St","lat":39.949389,"lng":-75.151184,"distance":1130,"postalCode":"19106","cc":"US","city":"Philadelphia","state":"PA","country":"United States"},"categories":[{"id":"4bf58dd8d48988d1c9941735","name":"Ice Cream Shop","pluralName":"Ice Cream Shops","shortName":"Ice Cream","icon":{"prefix":"https://ss1.4sqi.net/img/categories_v2/food/icecream_","suffix":".png"},"primary":true}],"verified":true,"stats":{"checkinsCount":734,"usersCount":619,"tipCount":4},"url":"http://www.dairyqueen.com","menu":{"type":"Menu","label":"Menu","anchor":"View Menu","url":"https://foursquare.com/v/dairy-queen/4c1bbc96b9f876b046bf7a46/menu","mobileUrl":"https://foursquare.com/v/4c1bbc96b9f876b046bf7a46/device_menu"},"specials":{"count":3,"items":[{"id":"51f8445c50193a145d2c3d51","type":"count","message":"25% off your entire order!","description":"Unlocked on your 1st check-in","finePrint":"Does not apply to cake purchases or cake orders. For first time check-ins. Cannot be saved for a later date.","icon":"newbie","title":"Newbie Special","provider":"foursquare","redemption":"standard"},{"id":"51e85144454a2c8acbfe64f3","type":"frequency","message":"Receive $1 off any size blizzard when you show this to a crew member before ordering. Or receive $3 off any cake.","description":"Unlocked every check-in","finePrint":"May only be used once per visit.","icon":"check-in","title":"Check-in Special","provider":"foursquare","redemption":"standard"},{"id":"51c0bdbe454a433641815fec","type":"frequency","message":"BOGO FREE Blizzards","description":"Unlocked every 3 check-ins","finePrint":"BUY any 12oz or Larger Blizzard at regular price and get a 2nd of equal or smaller size FREE","icon":"frequency","title":"Loyalty Special","provider":"foursquare","redemption":"standard"}]},"hereNow":{"count":0,"summary":"0 people here","groups":[]},"storeId":"43295","referralId":"v-1397675383"}]}}